store_code,district,address,latitude,longitude,geocode_status,note
417.0,Wong Tai Sin,"Shop No.213 & 214, 2/F., Fung Tak Shopping Centre, Wong Tai Sin, Kln.",22.344192339962515,114.20068110787366,SUCCESS_CSDI,"SUCCESS_CSDI: Fung Tak Shopping Centre iPostal Station - Site No. LK03, 2/F, Fung Tak Shopping Centre, Fung Tak Estate, Wong Tai Sin"
227.0,Kowloon City,"Unit MTR-09, Festival Walk, 80 Tat Chee Avenue, Kowloon Tong, Kln.",22.337483823520767,114.17432330878539,SUCCESS_CSDI,"SUCCESS_CSDI: MANNINGS O/B THE DAIRY FARM CO. LTD. - UNIT MTR-09, FESTIVAL WALK, 80, TAT CHEE AVENUE, KOWLOON TONG, KLN"
112.0,Sha Tin,"Shop No.113, G/F, Hin Keng Shopping Ctr, Hin Keng Estate, Shatin, N.T.",22.362972513686262,114.17157132595021,SUCCESS_CSDI,"SUCCESS_CSDI: SHING FUNG DISPENSARY (HONG KONG) COMPANY LIMITED - SHOP NO. 111, G/F, HIN KENG SHOPPING CTR., HIN KENG EST., SHATIN,NT"
920.0,Wong Tai Sin,"Shop No. B14, B1/F, Kai Chuen Shopping Centre, Kai Chuen Court (Phase 2), Diamond Hill, Wong Tai Sin, Kowloon",22.33973527298124,114.20028855714492,SUCCESS_CSDI,SUCCESS_CSDI: Kai Chuen Court Kai Chi House - Kai Chuen Court
530.0,Wong Tai Sin,"Shop No. N210A, Level 2, Temple Mall North, 136 Lung Cheung Road, Wong Tai Sin, Kln",22.34212937846227,114.1918239816509,SUCCESS_CSDI,SUCCESS_CSDI: Temple Mall North - 136 LUNG CHEUNG ROAD  
898.0,Wong Tai Sin,"Shop No.3183A, 3/F., Lok Fu Place, 198 Junction Road, Wong Tai Sin,  Kowloon",22.339440064580135,114.18690976446412,SUCCESS_CSDI,"SUCCESS_CSDI: Lok Fu Place iPostal Station - Site No. LK07, 3/F, Lok Fu Place, Lok Fu Estate, Wong Tai Sin"
325.0,Sha Tin,"Shops 20-22, G/F., Mei Lam Shopping Centre, Mei Lam Estate, Tai Wai, N.T.",22.378277144315565,114.1760907178899,SUCCESS_CSDI,"SUCCESS_CSDI: Health for Hong Kong Medical Elderly Care Centre - Shop No. S6, 2/F, Mei Lam Shopping Centre, Mei Lam Estate, 30 Mei Tin Road, Tai Wai, New Territories"
327.0,Sha Tin,"Shops 103 & 104, 1/F., Mei Tin Shopping Centre, Mei Tin Estate, Tai Wai, N.T.",22.376247371442147,114.1706114882912,SUCCESS_CSDI,SUCCESS_CSDI: Mei Tin Shopping Centre - Mei Tin Estate
116.0,Wong Tai Sin,"Shop 377-378, Plaza Hollywood, Diamond Hill, Kln.",22.340763606750528,114.20194481955468,SUCCESS_CSDI,"SUCCESS_CSDI: MANNINGS O/B THE DAIRY FARM CO. LTD. - SHOP 377-378, PLAZA HOLLYWOOD, DIAMOND HILL, KLN"
529.0,Sha Tin,"Shop 7, G/F, Sun Chui Shopping Centre, Sun Chui Estate, Tai Wai, N.T.",22.36920361562044,114.18116593830342,SUCCESS_CSDI,"SUCCESS_CSDI: Recycling Organisations and Collection Points: McDonald's - Shop L101B, 1/F, Sun Chui Shopping Centre, Sun Chui Estate, Tai Wai"
107.0,Sha Tin,"Shop No.10 G/F Grandeur Garden Shopping Arcade, 55-56 Tai Wai Rd, Tai Wai, N.T.",22.374143376857486,114.17705886259145,SUCCESS_CSDI,SUCCESS_CSDI: Grandeur Garden Block 1 - GRANDEUR GARDEN
931.0,Sha Tin,"Shop Units 302-303, 3rd Floor, The Wai, Shatin, N.T.",22.42947846972062,114.11238578261876,SUCCESS_CSDI,SUCCESS_CSDI: New Territories - 
324.0,Sha Tin,"Shops 12 & 13, Paid Concourse, MTR Tai Wai Station, N.T.",22.373159039642307,114.1785541535691,SUCCESS_CSDI,SUCCESS_CSDI: Tai Wai Station - 
477.0,North,"Shop 19-21, UG/F, Avon Park, 15 Yat Ming Road, Fanling, N.T.",22.487544003338055,114.14274000127108,SUCCESS_CSDI,"SUCCESS_CSDI: 7-Eleven-Fanling - Shop No. G31, G/F, Avon Park, No. 15 Yat Ming Road, Fanling, N.T."
532.0,North,"Shop 106a, Metropolis Plaza, 8 Lung Wan Street, Sheung Shui, N.T.",22.50130669930937,114.12846087876049,SUCCESS_CSDI,SUCCESS_CSDI: LUNG WAN STREET - 
536.0,North,"Shop No. R8, 3/F, Choi Yuen Plaza, Choi Yuen Estate, 
Sheung Shui, N.T.",22.50095030260099,114.12649325612637,SUCCESS_CSDI,SUCCESS_CSDI: Choi Yuen Plaza - CHOI YUEN ESTATE
358.0,North,"Shop 9, Ching Ho Shopping Centre, Ching Ho Estate, Sheung Shui, N.T.",22.494268026305914,114.12718566069601,SUCCESS_CSDI,SUCCESS_CSDI: Ching Ho Shopping Centre - CHING HO ESTATE
105.0,North,"Shop A56-A59, G/F, Flora Plaza, 88 Pak Wo Road, Fanling, N.T.",22.485620507564317,114.14074467936454,SUCCESS_CSDI,SUCCESS_CSDI: Flora Plaza Block 1 - FLORA PLAZA
328.0,North,"Shops. LMC 119 & 120, MTR Lok Ma Chau Station, N.T.",22.51446538845154,114.06569273455753,SUCCESS_CSDI,"SUCCESS_CSDI: MTR Lok Ma Chau Station - Mass Transit Railway Lok Ma Chau Station, Lok Ma Chau, Yuen Long, NT"
376.0,North,"Shop Low 108, MTR Lo Wu Station, Lo Wu, N.T.",22.52940042756313,114.1135157052135,SUCCESS_CSDI,"SUCCESS_CSDI: Vango-羅湖 - Shop LOW K3, M.T.R. Lo Wu Station, Lo Wu Station Road, Lo Wu, NT"
834.0,North,"Shop No. LOW K13, MTR Lo Wu Station, Lo Wu, N.T.",22.529052802698818,114.11342069952595,SUCCESS_CSDI,"SUCCESS_CSDI: MTR Lo Wu Station-A Exit - Mass Transit Railway Lo Wu Station, Lo Wu, NT"
492.0,North,"Shop Nos.2077D-H,2/F,Sheung Shui Centre, No.3 Chi Cheong Road,Sheung Shui, N.T.",22.50111377720593,114.12955455484983,SUCCESS_CSDI,SUCCESS_CSDI: SHEUNG SHUI CENTRE - 3 CHI CHEONG ROAD  
166.0,North,"Shop A & B, G/F, Lung Ha Building, Nos. 122-130 San Fung Avenue, Shek Wu Hui, Sheung Shui, New Territories",22.50358140100065,114.12650560125844,SUCCESS_CSDI,"SUCCESS_CSDI: Lung Ha Building, Nos. 122-130 San Fung Avenue, Shek Wu Hui, Sheung Shui, New Territories - Mannings Shop A & B, G/F, Lung Ha Building, Nos. 122-130 San Fung Avenue, Shek Wu Hui, Sheung Shui, New Territories"
381.0,North,"G/F., No.96 San Hong Street, Sheung Shui, N.T.",22.50532605265239,114.12737955110236,SUCCESS_CSDI,"SUCCESS_CSDI: 7-Eleven-Sheung Shui - Ground Floor, No. 17 San Hong Street, Sheung Shui, North N.T"
819.0,North,"Shop 419-423, Level 4, Landmark North, 39 Lung Sum Avenue, Shek Wu Hui, Sheung Shui, N.T.",22.502663728303567,114.12766179609434,SUCCESS_CSDI,"SUCCESS_CSDI: MANNINGS PLUS O/B THE DAIRY FARM CO. LTD. - SHOP NOS. 419-423, LEVEL 4, LANDMARK NORTH, 39 LUNG SUM AVENUE, SHEK WU HUI,SHEUNG SHUI,NT"
885.0,North,"Shop 3, G/F, Yung Shing Shopping Centre, Yung Shing Court, Fanling, N.T.",22.482739344133815,114.1387339422662,SUCCESS_CSDI,"SUCCESS_CSDI: Circle K-Yung Shing Shopping Centre - Shop 12 G/F., Yung Shing Shopping Centre, Yung Shing Court, Fanling N.T."
900.0,North,"Shop No. LMC 117, MTR Lok Ma Chau Station, N.T.",22.514321147023804,114.06568050611232,SUCCESS_CSDI,SUCCESS_CSDI: 7-Eleven-Yuen Long - Shop No. LMC 201 at MTR Lok Ma Chau Station     (East Rail)
890.0,Tai Po,"Shop 269-270, 2/F, Zone B, Tai Po Mega Mall, Tai Po, N.T.",22.451703764081085,114.17002777496349,SUCCESS_CSDI,"SUCCESS_CSDI: WATSON'S THE CHEMIST O/B AS WATSON RETAIL (HK) LIMITED - SHOP NO. 113, LEVEL 1, ZONE B, TAI PO MEGA MALL, NO. 8 & 10 ON PONG ROAD, TAI PO, NT"
873.0,North,"Shop 5, G/F, Commune Modern, 28 Wo Fung Street, 
Fanling, New Territories
",22.498380895356156,114.1427239244153,SUCCESS_CSDI,SUCCESS_CSDI: Commune Modern Tower 1 - Commune Modern
822.0,Tai Po,"Shop Nos. 15-16, G/F, Eightland Gardens, Tai Po, N.T.",22.45271801045714,114.1668404388175,SUCCESS_CSDI,"SUCCESS_CSDI: Market Place-No.8 Garden - Shop Nos. 9 and 10 on Ground Floor, Eightland Gardens, No. 2 On Chee Road, Tai Po, N.T."
959.0,Tai Po,"Shop No. 15, G/F, Fu Tip Shopping Centre, Fu Tip Estate (Phase 2), Tai Po, N.T.",22.463570000901477,114.17642000423398,SUCCESS_CSDI,"SUCCESS_CSDI: PARKNSHOP-Fu Tip Shopping Centre - Shop No. 13, G/F, Fu Tip Shopping Centre, Fu Tip Estate (Phase 2), Tai Po"
115.0,Tai Po,"Shop 28, Fu Heng Shopping Centre, Fu Heng Estate, Tai Po, N.T. ",22.458258000997578,114.17122300126042,SUCCESS_CSDI,"SUCCESS_CSDI: Fu Heng Sports Centre - 1/F, Fu Heng Shopping Centre, Fu Heng Estate, Tai Po"
872.0,North,"Shop 139-142, G/F, Fanling Centre, 33 San Wan Road, Fanling, N.T.",22.49099617585279,114.1407067973791,SUCCESS_CSDI,"SUCCESS_CSDI: Fanling Centre Shopping Arcade - G/F, Fanling Centre Shopping Arcade, 33 San Wan Road, Fanling"
300.0,North,"Shop No. 111,1/F., Ka Fuk Shopping Centre, Ka Fuk Estate, Fanling, N.T.",22.49318154624139,114.13540922294307,SUCCESS_CSDI,"SUCCESS_CSDI: Circle K-Ka Fuk Shopping Centre - Shop no. 6, Ka Fuk Shopping Ctr, Ka Fuk Est, Fanling, N.T."
299.0,Tai Po,"Shop Nos. 206-209, 1/F., Kwong Fuk Shopping Centre, Kwong Fuk Estate, Tai Po, N.T.",22.448699099093062,114.17421250312704,SUCCESS_CSDI,SUCCESS_CSDI: Kwong Fuk Shopping Centre  - 
213.0,North,"Shop 1 & 2, Level 1, Regentville Phase 1, 8 Wo Mun Street, Luen Wo Hui, Fanling, N.T.",22.50083741668061,114.14394786283783,SUCCESS_CSDI,"SUCCESS_CSDI: Regentville Shopping Mall - 8 Wo Mun Street, Luen Wo Hui, Fanling, New Territories"
522.0,Tai Po,"Shop Nos. 055 & 056, Level 2 of Zone A of Tai Po Mega Mall, Tai Po, N.T.",22.452593900997385,114.1689861012602,SUCCESS_CSDI,"SUCCESS_CSDI: Tai Po Mega Mall - Zone B, Tai Po Mega Mall, 8 & 10 On Pong Road, Tai Po, N.T."
881.0,Tai Po,"Shop A048-A050, Level 1, Uptown Plaza, 9 Nam Wan Road, Tai Po, N.T.",22.443696044318827,114.1687044224402,SUCCESS_CSDI,SUCCESS_CSDI: Uptown Plaza Block 1 - UPTOWN PLAZA
493.0,Tai Po,"Shop E, G/F, Mee Fat Building, 34-38 & 42-48 Tai Wing Lane, Tai Po, N.T.",22.4472539426696,114.16690696920926,SUCCESS_CSDI,SUCCESS_CSDI: Mee Fat Building - 25 HEUNG SZE WUI SQUARE|34-48 TAI WING LANE
199.0,Tai Po,"Shop 29, Shopping Centre, Wan Tau Tong Estate, Tai Po, N.T.",22.442061429251552,114.1668781954597,SUCCESS_CSDI,"SUCCESS_CSDI: Wan Tau Tong Post Office - Shop No. 28, G/F, Wan Tau Tong Shopping Centre, Wan Tau Tong Estate, Tai Po"
816.0,Tai Po,"Shop 201, Level 2, Tai Wo Plaza, Tai Wo Estate, 12 Tai Po Tai Wo Road, Tai Po, N.T.
",22.451299208769207,114.16201220185309,SUCCESS_CSDI,"SUCCESS_CSDI: MANNINGS O/B THE DAIRY FARM CO. LTD. - SHOP NO. 201, LEVEL 2, TAI WO PLAZA, TAI WO ESTATE, 12 TAI PO TAI WO ROAD,TAI PO,NT"
271.0,Tai Po,"Shop 1, G/F., New Annex Block, Tai Yuen Shopping Ctr, Tai Yuen Estate, Tai Po, N.T.",22.453783043075894,114.16842209047324,SUCCESS_CSDI,SUCCESS_CSDI: Tai Yuen Shopping Centre (New Annex) - TAI YUEN ESTATE
901.0,Kwai Tsing,"Shop Nos. 313-315, 3/F, Cheung Hang Shopping Centre, Cheung Hang Estate, Tsing Yi, N.T. ",22.354554878059734,114.09775091242854,SUCCESS_CSDI,"SUCCESS_CSDI: Tsing Yi Cypress View Elderly Centre - Shop Nos. 7-8, 5/F, Cheung Hang Shopping Centre, Cheung Hang Estate, 6 Liu To Road, Tsing Yi, New Territories"
190.0,Kwai Tsing,"85 Wo Tong Tsui Street, Kwai Hing. N.T.",22.36899030619595,114.13136675755828,SUCCESS_CSDI,SUCCESS_CSDI: WO TONG TSUI STREET - 
494.0,Kwai Tsing,"Kiosk No.KWH 5, MTR Kwai Hing Station, Kwai Hing, N.T.",22.363074540849976,114.1312226941999,SUCCESS_CSDI,"SUCCESS_CSDI: MTR Kwai Hing Station - Mass Transit Railway Kwai Hing Station, Kwai Chung, NT"
918.0,Kwai Tsing,"Shop 131, Level 1, Kwai Shing East Shopping Centre, Kwai Shing East Estate, Kwai Chung, N.T.",22.36336254867862,114.12790211895977,SUCCESS_CSDI,SUCCESS_CSDI: KWAI SHING EAST ESTATE - 63 KWAI SHING CIRCUIT  
295.0,Kwai Tsing,"Shop No. 104, Kwai Chung Shopping Centre, Kwai Chung Estate Phase III, Sheung Kok Street, Kwai Chung, N.T.",22.36850971640513,114.12711386175533,SUCCESS_CSDI,SUCCESS_CSDI: Kwai Chung Estate - 
818.0,Kwai Tsing,"Shop Nos. 417-419, Level 4, Metroplaza, Kwai Fong, N.T.",22.357602512734548,114.12674589371835,SUCCESS_CSDI,"SUCCESS_CSDI: MANNINGS PLUS O/B THE DAIRY FARM COMPANY LIMITD - SHOP NOS. 417-419, LEVEL 4, METROPLAZA, KWAI FONG,NT"
830.0,Kwai Tsing,"Shop 8- 10, G/F, Foon Tak Building, 38-44 Shing Fong Street, Kwai Chung, N.T.",22.359280464248467,114.12699092458887,SUCCESS_CSDI,SUCCESS_CSDI: Foon Tak Building - 1 LAI FONG STREET|38-44 SHING FONG STREET
365.0,Kwai Tsing,"Shop 125, Lei Muk Shue Shopping Centre, Tsuen Wan, N.T.",22.378129856958502,114.1365485983069,SUCCESS_CSDI,SUCCESS_CSDI: Lei Muk Shue Shopping Centre - 
245.0,Tsuen Wan,"Shop S10, Level 1, Park Island - Pier, Ma Wan, NT",22.352864469407915,114.06434569244584,SUCCESS_CSDI,SUCCESS_CSDI: Park Island Pier - 
903.0,Kwai Tsing,"Shop Nos. B322 & B323, 3/F, Shek Lei Shopping Centre (Phase 2), Shek Lei Estate, Kwai Chung, N.T",22.365659325434045,114.13919308086065,SUCCESS_CSDI,SUCCESS_CSDI: Shek Lei Shopping Centre (Phase 2) - 
277.0,Kwai Tsing,"Shop No. 1, G/F., Tin On House, 96 Shek Yam Road, Kwai Chung, N.T.",22.369665404000237,114.13968330205722,SUCCESS_CSDI,"SUCCESS_CSDI: 7-Eleven-Kwai Chung - Shop No. 2, G/F, Tin On House, Nos. 78-84 & 88-96 Shek Yam Road, Kwai Chung, N.T."
39.0,Kwai Tsing,"Shop No, 217, 2/F, Cheung Fat Plaza, Cheung Fat Estate, Tsing Yi, N.T.",22.362578000596596,114.10271000712136,SUCCESS_CSDI,"SUCCESS_CSDI: PARKNSHOP SUPERSTORE Cheung Fat Estate - Shop No. 320, Level 3, Cheung Fat Plaza, Cheung Fat Est, 6 Tam Kon Shan Road, Tsing Yi, N.T."
113.0,Sha Tin,"Shop No.110 & 111, Chung On Shopping Centre, Ma On Shan, N.T.",22.42180775887777,114.22660530945292,SUCCESS_CSDI,SUCCESS_CSDI: Chung On Shopping Centre - CHUNG ON ESTATE
30.0,Sha Tin,"Shop 221-222,Level 2, Heng On Estate Shopping Centre, Ma On Shan, Shatin, N.T.",22.416691662286677,114.2278341842913,SUCCESS_CSDI,"SUCCESS_CSDI: Wellcome Supermarket-Heng On - Shop 227-231, Level 2, Heng On Shopping Centre, Heng On Estate, Ma On Shan, Shatin, NT"
57.0,Sha Tin,"CB4, Shop 1-3, Kwong Yuen Estate, Shatin, N.T.",22.38258254341358,114.21447283664213,SUCCESS_CSDI,SUCCESS_CSDI: KWONG YUEN ESTATE - 68 SIU LEK YUEN ROAD  
899.0,Sha Tin,"Shop G10, Lake Silver, 599 Sai Sha Road, Ma On Shan, N.T.",22.42859239784925,114.24395610928127,SUCCESS_CSDI,SUCCESS_CSDI: LAKE SILVER - 
500.0,Sha Tin,"Shop No. 2A, G/F, 1 On Ping Street, Shatin, N.T.",22.39117300531352,114.20732868073732,SUCCESS_CSDI,SUCCESS_CSDI: ON PING STREET - 
240.0,Sha Tin,"Shop 107-109, Pok Hong Shopping Centre, Shatin, N.T.",22.37511782959967,114.19337137478485,SUCCESS_CSDI,SUCCESS_CSDI: Pok Hong Shopping Centre - POK HONG ESTATE
883.0,Sha Tin,"Shop P12, P1/F, Shek Mun Shopping Centre, 
Shek Mun Estate (Phase 2), Shatin",22.38638566801536,114.20852125670856,SUCCESS_CSDI,SUCCESS_CSDI: Shek Mun Shopping Centre - 
810.0,Sha Tin,"Shop No. 2108, Level 2, MOSTown, Ma On Shan, N.T.",22.424169565247194,114.23196002984972,SUCCESS_CSDI,"SUCCESS_CSDI: MANNINGS PLUS O/B THE DAIRY FARM CO. LTD. - SHOP NO. 2108, LEVEL 2, MOSTOWN , MA ON SHAN,NT"
827.0,Sha Tin,"Shop No. G10, G/F, 16 Po Tai Street, Ma On Shan, N.T.",22.413988457920482,114.22353117561676,SUCCESS_CSDI,SUCCESS_CSDI: PO TAI STREET - 
367.0,Sha Tin,"Shop No. 119-120, Level 1, Yu Chui Shopping Centre, Yu Chui Court, Shatin, N.T.",22.380724104300608,114.20544183611914,SUCCESS_CSDI,SUCCESS_CSDI: YU CHUI COURT - 6 NGAU PEI SHA STREET  
542.0,Sha Tin,"Shop No. 204, 2/F, Shui Chuen O Plaza, Shui Chuen O Estate, Shatin, N.T.",22.37307999873937,114.1973200044035,SUCCESS_CSDI,"SUCCESS_CSDI: Shui Chuen O Plaza iPostal Kiosk - Opposite to Shop No. 222, 2/F, South Wing, Shui Chuen O Plaza, Shui Chuen O Estate, Pok Chuen Street, Sha Tin"
437.0,Sha Tin,"Shop Units G63-65, Plaza Ascot, Fotan, N.T.",22.39893934867642,114.20120164465023,SUCCESS_CSDI,SUCCESS_CSDI: Plaza Ascot - ROYAL ASCOT
847.0,Sha Tin,"Shop A213, Level 2, New Town Plaza Phase III, Shatin, N.T.",22.379537000993164,114.18755900125979,SUCCESS_CSDI,"SUCCESS_CSDI: New Town Plaza Phase III - New Town Plaza Phase 3, 2-8 Sha Tin Centre Street, Sha Tin, N.T."
290.0,Sha Tin,"Shop Nos. 12-13, G/F., Greenwood Garden, 7-11 Sha Kok Street, Shatin, N.T.",22.379572008470163,114.1964730079799,SUCCESS_CSDI,"SUCCESS_CSDI: 7-Eleven-Shatin - Portion of Shop Nos. 12-13, G/F, Greenwood Garden, Nos. 7-11 Sha Kok Street, Shatin, N.T."
210.0,Sha Tin,"Shop 214, 2/F, Lek Yuen Shopping Centre, Lek Yuen Estate, Shatin, N.T.",22.384681295449287,114.19196448372362,SUCCESS_CSDI,SUCCESS_CSDI: Lek Yuen Shopping Centre (Previous Name) - LEK YUEN ESTATE
484.0,Sha Tin,"Shop Nos.307 and 307A, Level 3, New Town Plaza (Phase I), Shatin, N.T.",22.381757800993242,114.18863720125995,SUCCESS_CSDI,"SUCCESS_CSDI: New Town Plaza Phase I - New Town Plaza Phase I, 18 Shatin Centre Street, Shatin, N.T."
27.0,Sha Tin,"Shop G30-G32, Fortune City One, City One, Shatin, N.T.",22.386377571716054,114.20332607940446,SUCCESS_CSDI,SUCCESS_CSDI: Fortune City One - 1 NGAN SHING STREET  
499.0,Sha Tin,"Shop 235, 2/F, Sha Kok Shopping Centre, Sha Kok Estate, 5 Sha Kok Street, Shatin, NT",22.377294166615474,114.19357554147338,SUCCESS_CSDI,SUCCESS_CSDI: Sha Kok Shopping Centre - SHA KOK ESTATE
936.0,Sha Tin,"Shop No. 48, Level 3, Shatin Plaza, Shatin, N.T.",22.38354987420422,114.18950170360365,SUCCESS_CSDI,"SUCCESS_CSDI: 7-Eleven-Shatin - Shop No. 1A, Level 3, Shatin Plaza, Shatin, N.T."
161.0,Sha Tin,"Shop No.G11, G12, G.F, Sui Wo Shopping Centre, Shatin, N.T.",22.450567611623864,114.16065022647308,SUCCESS_CSDI,SUCCESS_CSDI: TAI WO SHOPPING CENTRE PHASE 2 - 
98.0,Sha Tin,"Shop 261, 2/F Wo Che Shopping Centre, Wo Che Estate, Shatin, N.T.",22.388509860876177,114.19554816709054,SUCCESS_CSDI,SUCCESS_CSDI: WO CHE ESTATE - 
902.0,Sha Tin,"Shop No.G13, G/F, Chun Yeung Shopping Centre, Chun Yeung Estate, Fo Tan, Shatin, N.T.",22.39934700836211,114.19015972951856,SUCCESS_CSDI,SUCCESS_CSDI: Chun Yeung Shopping Centre - 20 KWEI TEI STREET  
915.0,Southern,"Unit No. 122, First Floor, Marina Square West Commercial Block, South Horizons, Ap Lei Chau, H.K. ",22.24405100604586,114.14679831749913,SUCCESS_CSDI,"SUCCESS_CSDI: MANNINGS O/B THE DAIRY FARM COMPANY, LIMITED - UNIT NO. 122, FIRST FLOOR, MARINA SQUARE WEST COMMERCIAL BLOCK, SOUTH HORIZONS, AP LEI CHAU,HK"
230.0,Central & Western,"Ground Floor, 57 Bonham Road, H.K.",22.283639619649772,114.1473421352572,SUCCESS_CSDI,SUCCESS_CSDI: BONHAM ROAD - 
177.0,Central & Western,"Shop 1, G/F, Leader House, 57-61 Belcher's Street, H.K.",22.283008893126503,114.12963793355149,SUCCESS_CSDI,SUCCESS_CSDI: Leader House - 57-61 BELCHER'S STREET  
438.0,Central & Western,"Shop C,G/F,Luen Hong Apartments,No 116-122 & 122A Belcher's Street,H.K.",22.282294995634274,114.12635797165666,SUCCESS_CSDI,SUCCESS_CSDI: BELCHER'S STREET - 
16.0,Southern,"Shop 303, Chi Fu Landmark, Pokfulam, H.K.",22.257651006484387,114.13878700453188,SUCCESS_CSDI,"SUCCESS_CSDI: FUSION Chi Fu Superstore - Shop Nos. 201-202, 2/F, Chi Fu Landmark, Pokfulam, Hong Kong"
247.0,Central & Western,"Shop A, G/F., Lai Yan Lau, 42-56 Queen's Road West, Sheung Wan, H.K.",22.286571187288263,114.14758858153587,SUCCESS_CSDI,SUCCESS_CSDI: Lai Yan Lau - 42-56 QUEEN'S ROAD WEST  
388.0,Southern,"Shop Nos. 106-107, 1/F., Port Centre, Aberdeen, H.K.",22.24902290421264,114.15498862857942,SUCCESS_CSDI,SUCCESS_CSDI: Port Centre - 38 CHENGTU ROAD  
933.0,Southern,"Portion of Ground Floor, Harrow Mansion,170-172 Aberdeen Main Road,Aberdeen,H.K.",22.248786058520917,114.15584191043752,SUCCESS_CSDI,"SUCCESS_CSDI: MANNINGS O/B THE DAIRY FARM CO. LTD. - PORTION OF GROUND FLOOR, HARROW MANSION, 170-172 ABERDEEN MAIN ROAD, ABERDEEN, HK"
155.0,Central & Western,"Shop C, G/F, Good Time Building, 230-236 Queen's Road West, H.K.",22.2867058535049,114.14347418087813,SUCCESS_CSDI,SUCCESS_CSDI: Good Times Building - 230-236 QUEEN'S ROAD WEST  
160.0,Central & Western,"Shop 8, G/F, Fairview Height, 1 Seymour Road, H.K.",22.280070005848014,114.15081900072957,SUCCESS_CSDI,"SUCCESS_CSDI: FUSION Fairview Heights - Front portion of Shop 5, G/F & Shop Nos 1 & 2, LG/F, Fairview Height, 1 Seymour Rd, Mid Levels, Hong Kong"
90.0,Central & Western,"Shop 6, 1/F, Welland Building, 368 Queen's Road, Central, H.K.",22.28586692313182,114.14917817638955,SUCCESS_CSDI,"SUCCESS_CSDI: 7-Eleven-Sheung Wan - Shop No. 7, G/F, Welland Building, No. 368 Queen's Road Central, Hong Kong"
138.0,Central & Western,"Shop No. 8, G/F., Hang Yue Building, No. 334-350 Des Voeux Road West, H.K.",22.287120066516056,114.13808850840279,SUCCESS_CSDI,SUCCESS_CSDI: Hang Yue Building - 334-350 DES VOEUX ROAD WEST  
289.0,Central & Western,"G/F., Ko Leung Mansion, 572-574 Queen's Road West, Hong Kong",22.286360346465138,114.13354739341446,SUCCESS_CSDI,SUCCESS_CSDI: Ko Leung Mansion - 572-574 QUEEN'S ROAD WEST  
207.0,Central & Western,"Shop 237, Level 2, The Westwood, 8 Belcher's Street, Kennedy Town, H.K.",22.2849680009888,114.13325230125415,SUCCESS_CSDI,"SUCCESS_CSDI: The Westwood, 8 Belcher's Street, HK - Wellcome 3/F The Westwood, 8 Belcher's Street, HK"
256.0,Southern,"Shop No. 714-715, Wah Chun House, Wah Fu (1) Estate, H.K.",22.25061770998818,114.13614861051815,SUCCESS_CSDI,SUCCESS_CSDI: Wah Chun House - 8 WATERFALL BAY ROAD  
141.0,Central & Western,"G/F, Amtel Building, 144-148 Des Voeux Road Central, Sheung Wan, H.K.",22.285470526340106,114.15434253285649,SUCCESS_CSDI,SUCCESS_CSDI: Amtel Building - 144-148 DES VOEUX ROAD CENTRAL  
144.0,Island,"G/F, 31 Praya Road, Cheung Chau, H.K.",22.210767197968302,114.02781035349301,SUCCESS_CSDI,SUCCESS_CSDI: PAK SHE PRAYA ROAD - 
316.0,Wan Chai,"Shops C, E, F, G & J, G/F., Everwin Mansion, 18 Johnston Road, Wanchai, H.K.",22.277073450483822,114.17006280876979,SUCCESS_CSDI,"SUCCESS_CSDI: Wellcome Supermarket-Johnston Road - Basement & G/F Portion, Everwin Mansion, No. 18 Johnston Road, Wanchai, H.K."
389.0,Wan Chai,"Shop A & B, 269-273 Hennessy Road, Wan Chai, H.K.",22.278233142451587,114.17698647366605,SUCCESS_CSDI,"SUCCESS_CSDI: CHECK INN HK - Flat C, 6/F, Kwong Wah Mansion, 269-273 Hennessy Road, Wan Chai, Hong Kong"
345.0,Wan Chai,"G/F., No 25-27 Sing Woo Road, Happy Valley, H.K.",22.268085516975603,114.18674490942702,SUCCESS_CSDI,"SUCCESS_CSDI: CHUEN KAU TYRE & BATTERY COMPANY LIMITED - G/F, No. 65, Sing Woo Road, Happy Valley"
267.0,Central & Western,"Shop No.2004 on Podium Level Two, IFC mall, 1 Harbour View Street, Central, H.K.",22.284748543517306,114.15802030309843,SUCCESS_CSDI,"SUCCESS_CSDI: Recycling Organisations and Collection Points: McDonald's - Shop No. 2022 on Podium Level Two, IFC Mall, 1 Harbour View Street, Central"
892.0,Wan Chai,"G/F, Tower 188, 188-190 Hennessy Road, Wan Chai, Hong Kong",22.27896043000582,114.18013332694981,SUCCESS_CSDI,SUCCESS_CSDI: HENNESSY ROAD - 
906.0,Central & Western,"Shop HOK 48, MTR Hong Kong Station, H.K.",22.284104489435986,114.15875002679692,SUCCESS_CSDI,"SUCCESS_CSDI: MTR Hong Kong Station-B1 Access - Mass Transit Railway Hong Kong Station, Central District, HK"
170.0,Wan Chai,"G08, G/F, Mall Plus, 388 Hennessy Road, Wanchai, HK",22.27896043000582,114.18013332694981,SUCCESS_CSDI,SUCCESS_CSDI: HENNESSY ROAD - 
427.0,Central & Western,"Shop No.203, 2/F, Shun Tak Centre, 200 Connaught Road Central, Sheung Wan, Hong Kong",22.28790980473331,114.15179140379907,SUCCESS_CSDI,"SUCCESS_CSDI: 7-Eleven-Sheung Wan - Shop No. G01, G/F, Shun Tak Centre, Nos. 168-200 Connaught Road Central, Hong Kong"
509.0,Wan Chai,"Shops E & F, G/F, New Spring Garden Mansion, 47-65 Spring Garden Lane, Wan Chai, H.K.",22.275222248574476,114.17237219223745,SUCCESS_CSDI,"SUCCESS_CSDI: Registered WiFi Access Points: HGC Global Communications Limited (APID 00918) - Unit HK Jockey Club, Shop A-D, G/F, New Spring Garden Mansion, 59-65 Spring Garden Lane, Wan Chai"
281.0,Wan Chai,"Shop G14-G18, G/F., Sun Hung Kai Centre, Wan Chai, H.K.",22.280405897341733,114.17691316098598,SUCCESS_CSDI,SUCCESS_CSDI: Sun Hung Kai Centre - 30 HARBOUR ROAD  
25.0,Central & Western,"Shop 02, G/F Regent Centre, 88 Queen's Road, Central, H.K.",22.28314060098837,114.15512910125554,SUCCESS_CSDI,"SUCCESS_CSDI: Regent Centre, 88 Queen's Road, Central, Hong Kong - Mannings Shop 02, G/F Regent Centre, 88 Queen's Road, Central, Hong Kong"
361.0,Wan Chai,"Shop B, G/F, Yee Hong Building, Nos. 212-214 Wan Chai Road, H.K.",22.277759915424227,114.1780581243387,SUCCESS_CSDI,SUCCESS_CSDI: Yee Hong Building - 212-214 WAN CHAI ROAD  
254.0,Eastern,"Shop A, G/F, Cambridge House, Taikoo Place, Quarry Bay, H.K.",22.286826000987823,114.21093300125928,SUCCESS_CSDI,"SUCCESS_CSDI: Cambridge House, Taikoo Place, Quarry Bay, H.K. - Mannings, Shop A, G/F, Cambridge House, Taikoo Place, Quarry Bay, H.K."
17.0,Eastern,"33 Cloudview Road, North Point, H.K.",22.285665500988003,114.1962555012583,SUCCESS_CSDI,"SUCCESS_CSDI: Cloudview Road Dairy Farm Shopping Centre, No. 33 Cloud View Road, North Point, Hong Kong - Market Place by Jasons, Cloudview Road Dairy Farm Shopping Centre, No. 33 Cloud View Road, North Point, Hong Kong"
273.0,Eastern,"Shop 420, City Plaza 1, 18 Tai Koo Shing Road, Island East, H.K.",22.37483568927995,114.11433351214758,SUCCESS_CSDI,SUCCESS_CSDI: Grand City Plaza - 1-17 SAI LAU KOK ROAD  
158.0,Eastern,"Shop 5-6, G/F, AIA Tower, 183 Electric Road, North Point, H.K.",22.28837919397441,114.19245869461209,SUCCESS_CSDI,SUCCESS_CSDI: AIA Tower - 183 ELECTRIC ROAD  
313.0,Eastern,"Shop No. L37 Lower Ground Floor, Fitfort, 560 King's Road, North Point, H.K.",22.291493351221032,114.20331786203704,SUCCESS_CSDI,"SUCCESS_CSDI: Fitfort - Healthy Gardens, North Point, HK"
523.0,Eastern,"Shop 02, G/F, Fortress Tower, 250 King’s Road, North Point, Hong Kong",22.28859940098811,114.19437460125829,SUCCESS_CSDI,"SUCCESS_CSDI: Fortress Tower, 250 King’s Road, North Point, Hong Kong - Mannings Shop 02, G/F, Fortress Tower, 250 King’s Road, North Point, Hong Kong"
535.0,Eastern,"Shop S30, 2/F & Shop S8-S10, Upper Floor of East Footbridge, Kornhill Plaza, 1-2 Kornhill Road, Hong Kong",22.28497300098764,114.21596200125963,SUCCESS_CSDI,"SUCCESS_CSDI: Kornhill Plaza - 1-2 Kornhill Road, Quarry Bay"
124.0,Eastern,"Shop B, G/F North Point Cape Commercial Bldg., 386-388 King's Road, North Point, H.K.",22.290554929205705,114.1981357623016,SUCCESS_CSDI,SUCCESS_CSDI: North Cape Commercial Building - 388 KING'S ROAD  
248.0,Wan Chai,"Shop B, G/F., 517 Jaffe Road, Causeway Bay, H.K.",22.281295600987903,114.1834605012574,SUCCESS_CSDI,"SUCCESS_CSDI: 517 Jaffe Road, Causeway Bay, Hong Kong - Mannings Shop B, G/F., 517 Jaffe Road, Causeway Bay, Hong Kong"
865.0,Wan Chai,"G/F, 8 Pak Sha Road, Causeway Bay, Hong Kong",22.278924716091854,114.18395766390924,SUCCESS_CSDI,SUCCESS_CSDI:  - 8 PAK SHA ROAD  
849.0,Eastern,"Shop 102, Lower G/F, Fok Cheong Building, 
1032-1044 King's Road, Quarry Bay, HK
",22.254180184062818,114.16174975142239,SUCCESS_CSDI,SUCCESS_CSDI: ABERDEEN LOWER RESERVOIR - 
905.0,Wan Chai,"Shop B & C, G/F, 68 Electric Road, Tin Hau, H.K.",22.28715267359128,114.19170810983267,SUCCESS_CSDI,SUCCESS_CSDI: ELECTRIC ROAD - 
871.0,Wan Chai,"Shop No. 917, 9/F, Times Square, Causeway Bay, Hong Kong",22.278211350557083,114.18257008099917,SUCCESS_CSDI,SUCCESS_CSDI: Times Square Tower One - TIMES SQUARE
813.0,Wan Chai,"Shop Nos. 311-312, 3/F, Windsor House, 311 Gloucester Road, Causeway Bay, H.K.",22.280270148534584,114.18651939437305,SUCCESS_CSDI,SUCCESS_CSDI: Windsor House - 311 GLOUCESTER ROAD  
960.0,Wan Chai,"Shop No. L2-12, Level 2, The World Trade Centre, 280 Gloucester Road, Causeway Bay, HK",22.280837465354708,114.18684844790424,SUCCESS_CSDI,SUCCESS_CSDI: GLOUCESTER ROAD - 
209.0,Eastern,"Shop 157 - 159, Paradise Mall, Heng Fa Chuen, Chai Wan, H.K.",22.277635803610778,114.23895150015592,SUCCESS_CSDI,"SUCCESS_CSDI: 7-Eleven-Chai Wan - Shop Unit 161, Paradise Mall, Hang Fa Chuen, Hong Kong"
413.0,Eastern,"Shop G05 & G06, G/F, Hing Wah Shopping Centre, Chai Wan, Hong Kong",22.372764100993855,114.10742610125438,SUCCESS_CSDI,"SUCCESS_CSDI: SMC Automation (Hong Kong) Ltd-Pilot Shop - 19/F., Cable TV Tower, 9 Hoi Shing Road, Tsuen Wan, N.T."
296.0,Eastern,"Shop No. 10, G/F., Hing Tung Shopping Centre, Hing Tung Estate, Shau Kei Wan, H.K.",22.28071920716481,114.22001090592786,SUCCESS_CSDI,"SUCCESS_CSDI: 7-Eleven-Shau Kei Wan - Shop No. 9, G/F, Hing Tung Shopping Centre, Hing Tung Estate, Yiu Hing Road, Shau Kei Wan, Hong Kong"
476.0,Eastern,"Shop UG 51 & UG52A, UG/F, Island Resort Mall, 28 Siu Sai Wan Road, H.K.",22.26647270776922,114.25067860525142,SUCCESS_CSDI,"SUCCESS_CSDI: Island Resort Mall - 28 Siu Sai Wan Road, Siu Sai Wan"
380.0,Eastern,"Shop No. GD20-21A, G/F, Site D, No.25 Tai On Street, Lei King Wan, H.K.",22.28557361295205,114.22394666564604,SUCCESS_CSDI,SUCCESS_CSDI: LEI KING WAN - 
87.0,Eastern,"Shop 1-11, L4, New Jade Shopping Arcade, Chai Wan, H.K.",22.263991300986234,114.23707390126053,SUCCESS_CSDI,"SUCCESS_CSDI: New Jade Shopping Arcade - New Jade Shopping Arcade, 233 Chai Wan Road, Hong Kong."
204.0,Eastern,"Shop 111, Oi Tung Shopping Centre, Oi Tung Estate Shau Kei Wan, H.K.",22.280805523509223,114.22779799930083,SUCCESS_CSDI,"SUCCESS_CSDI: Oi Tung Estate iPostal Station - Site No. LK04, 2/F, Oi Tung Shopping Centre, Oi Tung Estate, Shau Kei Wan"
276.0,Eastern,"Shop G7 & A6, G/F., Tai On Bldg., 57-87 Shau Kei Wan Road, Shau Kei Wan, H.K.",22.28264831023092,114.22175271060975,SUCCESS_CSDI,SUCCESS_CSDI: Tai On Building - 15 TAI ON STREET|57-87 SHAU KEI WAN ROAD
829.0,Eastern,"Shop No. 110A, 1/F, Siu Sai Wan Plaza, Siu Sai Wan Road, 
Chai Wan, H.K.",22.262662813242354,114.2487568322617,SUCCESS_CSDI,SUCCESS_CSDI: Siu Sai Wan Plaza - SIU SAI WAN ESTATE
424.0,Eastern,"Shop 2, G/F, Yue Fung House, Yue Wan Estate, Chai Wan, H.K.",22.265689506684577,114.24095370004345,SUCCESS_CSDI,"SUCCESS_CSDI: 7-Eleven-Chai Wan - Shop Nos. 3 & 4, Yue Fung House, Yue Wan Estate, Chai Wan, Hong Kong"
310.0,Eastern,"Shop No. 201, 2/F., Yiu Tung Shopping Centre, Yiu Tung Estate, Shau Kei Wan. H.K.",22.27763857431405,114.22422880216216,SUCCESS_CSDI,"SUCCESS_CSDI: 7-Eleven-Shau Kei Wan - Shop No. S1, Ground Floor, Commercial Centre (also known as Yiu Tung Shopping Centre), Yiu Tung Estate, 12 Yiu Hing Road, Shau Kei Wan, Hong Kong"
513.0,Eastern,"Shop No. 4, G/F, Hong Tai Building, Nos. 326-332 Shau Kei Wan Road, Hong Kong",22.278781958299398,114.22603056967284,SUCCESS_CSDI,SUCCESS_CSDI: Hong Tai Building - 
939.0,Yuen Long,"Shop No. 2008, Level 2, YOHO MALL I, No. 9 Long Yat Road, Yuen Long, N.T.",22.44530304567887,114.03642237730308,SUCCESS_CSDI,"SUCCESS_CSDI: MANNINGS BABY O/B THE DAIRY FARM COMPANY, LIMITED - SHOP NO. 2008, LEVEL 2, YOHO MALL I, NO. 9 LONG YAT ROAD, YUEN LONG, NT"
919.0,Tuen Mun,"Shop G12, G/F, Ching Tin Shopping Centre, Ching Tin Estate, Tuen Mun, N.T.",22.411958823789586,113.97124407405047,SUCCESS_CSDI,SUCCESS_CSDI: Ching Tin Shopping Centre - Ching Tin Estate
249.0,Yuen Long,"Shop No. 2, G/F, Block D, Town Centre, Fairview Park, Yuen Long, N.T.",22.477660210390795,114.04524852754373,SUCCESS_CSDI,SUCCESS_CSDI: Fairview Park Town Centre Plaza - 
527.0,Yuen Long,"Shop No. 9 & 10, G/F, Hung Fuk Shopping Centre, 
Hung Shui Kiu, Yuen Long, N.T.",22.436273298625803,113.99780530599449,SUCCESS_CSDI,SUCCESS_CSDI: Hung Fuk Shopping Centre - Hung Fuk Estate 
372.0,Yuen Long,"Shop No. 3, G/F., Beauty Court, no.3 Hung Tai Road, Hung Shui Kiu, Yuen Long, N.T.",22.28305770010512,114.14457153691929,SUCCESS_CSDI,SUCCESS_CSDI: Beauty Court - 
374.0,Yuen Long,"Shop Nos. 4, G/F, Kwong Wah Centre, 34-36 Fau Tsoi Street, Yuen Long, N.T.",22.44391582984558,114.0301052232044,SUCCESS_CSDI,"SUCCESS_CSDI: MANNINGS O/B THE DAIRY FARM CO. LTD. - SHOP NOS. 4, G/F, KWONG WAH CENTRE, 34-36 FAU TSOI STREET,YUEN LONG,NT"
841.0,Yuen Long,"Shop No. 7, G/F, Hing Fat House, Nos 9-13 Kau Yuk Road, Yuen Long, N.T.",22.44290493254878,114.0277068011936,SUCCESS_CSDI,"SUCCESS_CSDI: MANNINGS O/B THE DAIRY FARM COMPANY, LIMITED - SHOP NO. 7, G/F, HING FAT HOUSE, NOS. 9-13 KAU YUK ROAD,YUEN LONG,NT"
832.0,Tuen Mun,"Shop No. G06, G/F, Yan Tin Shopping Centre, Yan Tin Estate, Tuen Mun, N.T.",22.41461096602471,113.97619355948747,SUCCESS_CSDI,SUCCESS_CSDI: Yan Tin Shopping Centre - YAN TIN ESTATE
457.0,Yuen Long,"Shop M006 & M007, Mezzanine Floor, Kang Ping House, Blk 5, Long Ping Estate, Yuen Long, N.T.",22.45260008666624,114.02393762728518,SUCCESS_CSDI,SUCCESS_CSDI: LONG PING ESTATE - 1 LONG PING ROAD  
433.0,Yuen Long,"Shop Nos.4A&4B, G/F, Yuen Long Centre, No. 51-59 Sau Fu Street,  Yuen Long, N.T.",22.444935860547496,114.02671470652699,SUCCESS_CSDI,SUCCESS_CSDI: Yuen Long Centre - 
446.0,Yuen Long,"Shop No.73, G/F, Fortune Centre, Nos.15-21 Fung Kam Street, Yuen Long, N.T.",22.44262986324802,114.03308018337299,SUCCESS_CSDI,SUCCESS_CSDI: Fortune Centre - 15-21 FUNG KAM STREET|17-31 FUNG CHEUNG ROAD|2-18 FUNG HEUNG STREET
866.0,Yuen Long,"G/F, 21 Tung Lok Street, Yuen Long, N.T.",22.445478783772842,114.02789931489706,SUCCESS_CSDI,SUCCESS_CSDI:  - 21 TUNG LOK STREET  
498.0,Yuen Long,"Shop A212a, Level 2, YOHO MALL, 8-9 Long Yat Road & 9 Yuen Lung Street, Yuen Long, N.T.",22.445362710843785,114.03682802956132,SUCCESS_CSDI,"SUCCESS_CSDI: YOHO MALL I - YOHO MALL I, 9 Long Yat Road, Yuen Long, N.T."
533.0,Yuen Long,"Shop 130 & 181-183, 1/F, Yuen Long Plaza, Yuen Long, N.T.",22.445032761291497,114.02411981589508,SUCCESS_CSDI,"SUCCESS_CSDI: MANNINGS O/B THE DAIRY FARM CO. LTD. - SHOP NOS. 130 & 181-183 ON 1/F, YUEN LONG PLAZA, YUEN LONG,NT"
534.0,Tuen Mun,"Shop Nos.17-18, G/F, Blossom Garden, 11 Leung Tak Street, Tuen Mun, N.T.",22.40814454886242,113.96856915334838,SUCCESS_CSDI,SUCCESS_CSDI: BLOSSOM GARDEN - 11 LEUNG TAK STREET  
231.0,Tuen Mun,"Shop 211, 2/F., Fu Tai Shopping Centre, 9 Tuen Kwai Road, Tuen Mun, N.T.",22.413893862079203,113.9832751903405,SUCCESS_CSDI,"SUCCESS_CSDI: Fu Tai Shopping Centre - Fu Tai Shopping Centre, 9 Tuen Kwai Road, Tuen Mun,  New Territories"
319.0,Yuen Long,"Shop 104, 1/F., Grandeur Terrace, 88 Tin Shui Road, Tin Shui Wai, N.T.",22.46834877298134,114.0001904282446,SUCCESS_CSDI,"SUCCESS_CSDI: PARKNSHOP Grandeur Terrace - Shop Nos. 101-102, 1/F of Commercial / Carpark Block, Grandeur Terrace, 88 Tin Shui Road, Tin Shui Wai, N.T."
49.0,Tuen Mun,"Shop No. L217, Level 2, Leung King Plaza, Leung King Estate, Tuen Mun, N.T.",22.406367035082145,113.9627931923747,SUCCESS_CSDI,SUCCESS_CSDI: Leung King Plaza - LEUNG KING ESTATE
917.0,Tuen Mun,"Shop Nos. 22 & 23, G/F, NOVO WALK, 8 Yan Po Road, Tuen Mun, N.T.",22.41098924802971,113.96865232392568,SUCCESS_CSDI,SUCCESS_CSDI: NOVO WALK - NOVO LAND
514.0,Tuen Mun,"Shop No. 226, Siu Hong Shopping Centre, Siu Hong Court, Tuen Mun, N.T.",22.41245013486408,113.97777978022766,SUCCESS_CSDI,"SUCCESS_CSDI: Siu Hong Shopping Centre iPostal Station - Near Shop No. 203, 1/F, Siu Hong Shopping Centre, Siu Hong Court, Tuen Mun"
173.0,Yuen Long,"Shop C61 & C62, 1/F, Richly Plaza, Tin Shui Wai, Yuen Long, N.T.",22.452901342740684,114.00056251106874,SUCCESS_CSDI,SUCCESS_CSDI: Kingswood Richly Plaza Phase I - LOCWOOD COURT
811.0,Yuen Long,"Shop No. 210A, 2/F, Tin Chak Shopping Centre, Tin Chak Estate, Tin Shui Wai, N.T.",22.468422528977996,113.99866763766495,SUCCESS_CSDI,SUCCESS_CSDI: Tin Chak Shopping Centre - 77 TIN SHUI ROAD  
359.0,Yuen Long,"Shop 8, Tin Ching Shopping Centre, Tin Ching Estate, Tin Shui Wai, N.T.",22.462654083496176,114.00339657915947,SUCCESS_CSDI,"SUCCESS_CSDI: Tin Ching Shopping Centre - Tin Ching Shopping Centre, Tin Ching Estate, Tin Shui Wai, New Territories"
937.0,Yuen Long,"Shop No. G21, G/F, Tin Shui Shopping Centre, Tin Shui Estate, Tin Shui Wai, N.T.",22.45575256811085,113.99839237199897,SUCCESS_CSDI,SUCCESS_CSDI: Tin Shui Shopping Centre - 9 TIN SHUI ROAD  
877.0,Yuen Long,"Shop SG25, G/F, T Town South, No. 30 Tin Wah Road, 
Tin Shui Wai, Yuen Long, N.T.",22.462017017971633,113.99608678052961,SUCCESS_CSDI,SUCCESS_CSDI: TIN WAH ROAD - 
259.0,Tuen Mun,"Shop No. 6-9, Unpaid Concourse, MTR Siu Hong Station, N.T.",22.411850982670096,113.97889755249136,SUCCESS_CSDI,SUCCESS_CSDI: Siu Hong Station - 
198.0,Yuen Long,"Shop No.L029, G/F, Tin Yiu Plaza, Tin Shui Wai, N.T.",22.451458704108777,114.00261422126081,SUCCESS_CSDI,SUCCESS_CSDI: Tin Yiu Plaza - 
541.0,Yuen Long,"Shop No. L102, 1/F, Tin Shing Shopping Centre, 
Tin Shing Court, 3 Tin Ching Street, Tin Shui Wai, Yuen Long, N.T.",22.44839610206217,114.00142311605666,SUCCESS_CSDI,SUCCESS_CSDI: TIN SHING COURT - 3 TIN CHING STREET  
215.0,Tuen Mun,"Shop No. R123, Level 1, Butterfly Plaza, Tuen Mun, N.T.",22.37478829079371,113.96340467815226,SUCCESS_CSDI,SUCCESS_CSDI: Butterfly Plaza - BUTTERFLY ESTATE
318.0,Tuen Mun,"Shop No. 66A, G/F., Chi Lok Fa Yuen, Tuen Mun, N.T.",22.387695583345675,113.97979599793939,SUCCESS_CSDI,SUCCESS_CSDI: Chi Lok Fa Yuen Block 1 - CHI LOK FA YUEN
547.0,Tuen Mun,"Shop G2A, G/F, Chelsea Height, 1 Shek Pai Tau Path, 
Tuen Mun, N.T.",22.401655004432886,113.97479071688464,SUCCESS_CSDI,SUCCESS_CSDI: SHEK PAI TAU PATH - 
165.0,Tuen Mun,"Shop 55, 56 & 58, Glorious Garden, 45 Lung Mun Road, Tuen Mun, N.T.",22.38351379982812,113.9649741596664,SUCCESS_CSDI,SUCCESS_CSDI: Glorious Garden Block 1 - GLORIOUS GARDEN
135.0,Tuen Mun,"Shop Nos.2199B-2199F, 2/F, Phase 1, Tuen Mun Town Plaza, 1 Tuen Shun Street, Tuen Mun, N.T.",22.381757800993242,114.18863720125995,SUCCESS_CSDI,"SUCCESS_CSDI: New Town Plaza Phase I - New Town Plaza Phase I, 18 Shatin Centre Street, Shatin, N.T."
520.0,Tuen Mun,"Shop Nos. S229-230, Lv2, Zone S, H.A.N.D.S, Yau Oi Estate, Yau Oi Road, Tuen Mun, N.T.",22.386656456214755,113.97490508219373,SUCCESS_CSDI,SUCCESS_CSDI: YAU OI ROAD - 
132.0,Tuen Mun,"Shop C, Shops D and E, G/F, Forward Mansion, 26A Yan Ching St, Tuen Mun, N.T.",22.39577310083508,113.97592926389395,SUCCESS_CSDI,SUCCESS_CSDI: Forward Mansion - 26A YAN CHING STREET  
314.0,Tuen Mun,"Shop Nos. 1 & 85-86, Ocean Walk, 168-236 Wu Chui Road, Tuen Mun, N.T.",22.37281700762167,113.96612700833573,SUCCESS_CSDI,"SUCCESS_CSDI: PARKNSHOP Pierhead Garden - Shop Nos. 1, 2 & Portions of Shop No. 34, Ocean Walk, Nos. 168-236 Wu Chui Road, Tuen Mun, N.T."
448.0,Tuen Mun,"Shop Nos. 213-214, Level 2, Hanford Plaza, No.333 Castle Peak Road (Castle Peak Bay), Tuen Mun, N.T.",22.38271746698273,113.97789978753795,SUCCESS_CSDI,SUCCESS_CSDI: Hanford Plaza - HANFORD GARDEN
909.0,Tuen Mun,"Shop 106C & 106D, LG/F, Shan King Shopping Centre, Shan King Estate, Tuen Mun, N.T.",22.39685455160508,113.96708072381423,SUCCESS_CSDI,SUCCESS_CSDI: Shan King Shopping Centre - SHAN KING ESTATE
415.0,Tuen Mun,"Shop Nos.8, 9 & 39, Level 3, South Wing, Trend Plaza, Tuen Mun, N.T.",22.2806827084331,114.14490199364677,SUCCESS_CSDI,SUCCESS_CSDI: Mid-Levels - 
821.0,Tuen Mun,"Shop No. L107, G/F, Tai Hing Shopping Centre, 
Tai Hing Estate, 1 Tai Hing Street, Tuen Mun, N.T.",22.40397407099363,113.96980876463574,SUCCESS_CSDI,SUCCESS_CSDI: TAI HING ESTATE - 
826.0,Tuen Mun,"Shop No. M-72, MTR Level, V City, 
83 Tuen Mun Heung Sze Wui Road, Tuen Mun, N.T.
",22.394509998542247,113.97353100477248,SUCCESS_CSDI,"SUCCESS_CSDI: Wi-Fi.HK Hotspot Locations: SUNING - Shop No. M-12 on MTR Level, V City, 83 Tuen Mun Heung Sze Wui Rd, Tuen Mun"
549.0,Tuen Mun,"Shop M-28, 29, 30 & 31, MTR Level, V City, No. 83 Tuen Mun Heung Sze Wui Road, Tuen Mun, N.T.",22.394997965862665,113.97452785165666,SUCCESS_CSDI,SUCCESS_CSDI: TUEN MUN HEUNG SZE WUI ROAD - 
330.0,Tsuen Wan,"Shop No. 8, Level 3, Bellagio Mall, 33 Castle Peak Road, Sham Tseng, N.T.",22.36722126090606,114.06183888173896,SUCCESS_CSDI,SUCCESS_CSDI: Bellagio Mall - BELLAGIO
526.0,Tsuen Wan,"Shop Nos. G016 & G017, G/F, KOLOUR , 68 Chung On Street, Tsuen Wan, N.T.",22.37062190099359,114.11774820125503,SUCCESS_CSDI,"SUCCESS_CSDI: KOLOUR ․ Tsuen Wan I - L1, Kolour Tsuen Wan I, 68 Chung On Street, Tsuen Wan, N. T."
495.0,Tsuen Wan,"Shop 2050, Level 2, Discovery Park Shopping Centre, 398 Castle Peak Road, Tsuen Wan, N.T.",22.37611858092344,114.11117819519849,SUCCESS_CSDI,"SUCCESS_CSDI: Wi-Fi.HK Hotspot Locations: McCafe - D.Park - Shop 2022-2023, Level Two, Discovery Park Shopping Centre, 398 Castle Peak Road-Tsuen Wan, Tsuen Wan, NT"
935.0,Tsuen Wan,"Shop Nos. 202B & 203, 2/F, Nina Mall 1, No. 8 Yeung Uk Road, Tsuen Wan, N.T.",22.36861100099362,114.1130560012547,SUCCESS_CSDI,"SUCCESS_CSDI: Nina Mall 1 - No. 8 Yeung Uk Road, Tsuen Wan, N.T."
191.0,Tsuen Wan,"G/F, 19 Tai Ho Road, Tsuen Wan, N.T.",22.372244886346472,114.11686888080649,SUCCESS_CSDI,SUCCESS_CSDI: Chau's Building - 19-21 TAI HO ROAD|2-4A SHIU WO STREET|4-10 CHUEN LUNG STREET
317.0,Tsuen Wan,"Shop B118, Basement 1, Panda Place of Panda Hotel, 3 Tsuen Wah Street, Tsuen Wan, N.T.",22.368941117121327,114.12079289161535,SUCCESS_CSDI,SUCCESS_CSDI: Panda Place - 
844.0,Tsuen Wan,"G/F & The Rear Yard & Flat Roof, No. 236 Sha Tsui Road, Tsuen Wan, N.T.",22.371409463110083,114.11353437583999,SUCCESS_CSDI,SUCCESS_CSDI: SHA TSUI ROAD - 
21.0,Tsuen Wan,"Shop 110-125, Tsuen Kam Centre, Tsuen Wan, N.T.",22.374283000993866,114.1149904012549,SUCCESS_CSDI,"SUCCESS_CSDI: The Hong Kong Jockey Club - G/F, Shop B2, Tsuen Kam Centre, 300-350 Castle Peak Road-Tsuen Wan, N.T."
908.0,Kwai Tsing,"Shop B01 & B02, 1/F, Tai Wo Hau Commercial Centre (I), Tai Wo Hau Estate, Kwai Chung, N.T.",22.36657584848226,114.12294928771875,SUCCESS_CSDI,"SUCCESS_CSDI: Tai Wo Hau Commercial Centre 2 - Tai Wo Hau Estate, Kwai Chung, NT"
356.0,Tsuen Wan,"Shop No. G39 & G41, G/F, Citywalk, Tsuen Wan, N.T.",22.370175683379326,114.11368505736763,SUCCESS_CSDI,SUCCESS_CSDI: Citywalk - VISION CITY
399.0,Tsuen Wan,"Shops UG70-73 & UG75-77, Upper G/F, Citywalk 2, 18 Yeung Uk Road, Tsuen Wan, N.T.",22.36790766454518,114.11573037508205,SUCCESS_CSDI,SUCCESS_CSDI: YEUNG UK ROAD - 
233.0,Tsuen Wan,"Shop Units P11A & P11B, Luk Yeung Galleria, Tsuen Wan, N.T.",22.370897152771775,114.11123793029259,SUCCESS_CSDI,"SUCCESS_CSDI: Tsuen Wan Plaza - 4-30 Tai Pa Street, Tsuen Wan, New Territories, Hong Kong (MTR Tsuen Wan West Station, Exit A2)"
504.0,Tsuen Wan,"Shop 308-313, Level 3, Tsuen Wan Plaza, Tsuen Wan, NT",22.370667778127718,114.11101768033163,SUCCESS_CSDI,"SUCCESS_CSDI: 7-Eleven-Tsuen Wan - Shop No. 261, Level 2, Tsuen Wan Plaza, Tsuen Wan Town Lot No. 326, Tsuen Wan, N.T."
331.0,Yau Tsim Mong,"Shop 1092, Level 1, Elements, 1 Austin Road West, Kln",22.30510215196906,114.16180252125358,SUCCESS_CSDI,"SUCCESS_CSDI: POLYHEALTH MEDICAL CENTRE (ELEMENTS) - SHOP 1107, LEVEL 1, ELEMENTS, 1 AUSTIN ROAD WEST, KLN"
934.0,Yau Tsim Mong,"Shop A, G/F, Fourseas Building, Nos. 208-212 Nathan Road, Tsim Sha Tsui, Kowloon",22.303831265792375,114.1719927945088,SUCCESS_CSDI,SUCCESS_CSDI: Fourseas Building - 208-212 NATHAN ROAD  
151.0,Yau Tsim Mong,"Shop A, G/F, Full Win Commercial Centre, 573 Nathan Rd, Kln",22.31495690063313,114.1700124563529,SUCCESS_CSDI,SUCCESS_CSDI: Full Win Commercial Centre - 573 NATHAN ROAD  
531.0,Yau Tsim Mong,"G/F, Cambridge House, 26-28 Cameron Road, Tsim Sha Tsui, Kln.",22.299091148021585,114.17425703276957,SUCCESS_CSDI,"SUCCESS_CSDI: MANNINGS O/B THE DAIRY FARM CO. LTD. - G/F, CAMBRIDGE HOUSE, NOS. 26-28 CAMERON ROAD,TSIM SHA TSUI,KLN"
545.0,Yau Tsim Mong,"Shop 3304, Level 3, Gateway Arcade, Harbour City, Kowloon",22.298609002708755,114.1685600057693,SUCCESS_CSDI,"SUCCESS_CSDI: 7-Eleven-Tsim Sha Tsui - Shop 4015-6, Level 4, Gateway Arcade, Harbour City, Tsim Sha Tsui, Kowloon"
932.0,Yau Tsim Mong,"Shop on G/F & Yard, Zhong Da Building, 38-40 Haiphong Road, Tsim Sha Tsui",22.298096992642023,114.17073874644042,SUCCESS_CSDI,SUCCESS_CSDI: HAIPHONG ROAD - 
868.0,Yau Tsim Mong,"Shop Nos.17, 20-23, MTR Floor, iSQUARE, 63 Nathan Road, Tsim Sha Tsui, Kln",22.31008080933806,114.17115873886733,SUCCESS_CSDI,SUCCESS_CSDI: NATHAN ROAD - 
264.0,Yau Tsim Mong,"Shop 1, Sino Cheer Plaza, No. 23 Jordan Road, Kowloon",22.305520600989436,114.17082770125711,SUCCESS_CSDI,"SUCCESS_CSDI: Sino Cheer Plaza, No. 23 Jordan Road, Kowloon - Mannings Shop 1, Sino Cheer Plaza, No. 23 Jordan Road, Kowloon"
923.0,Yau Tsim Mong,"Unit 01B, Shop B201, Level B2, K11 MUSEA, 
Victoria Dockside, 18 Salisbury Road, Tsim Sha Tsui, Kln",22.29434014924408,114.17501113894177,SUCCESS_CSDI,SUCCESS_CSDI: Victoria Dockside - 18 SALISBURY ROAD  
400.0,Yau Tsim Mong,"Shop Nos. B109-B110, Basement 1, K11, No.18 Hanoi Road, Tsim Sha Tsui, Kowloon",22.297711096504162,114.17402730469743,SUCCESS_CSDI,SUCCESS_CSDI: HANOI ROAD - 
947.0,Yau Tsim Mong,"Shop 11 & 11A, G/F, China Hong Kong City, 33 Canton Road, Tsim Sha Tsui, Kowloon",22.329613201229737,114.18946392164318,SUCCESS_CSDI,SUCCESS_CSDI: Kowloon City - 
848.0,Yau Tsim Mong,"Shop B1-2, Concourse Level, Hong Kong West Kowloon Station, 3 Austin Road West, TST, Kln",22.302688239434158,114.1642358085551,SUCCESS_CSDI,SUCCESS_CSDI: AUSTIN ROAD WEST - 
70.0,Yau Tsim Mong,"G/F, Oxford Commercial Building, 494-496 Nathan Road, Kln.",22.3117102498739,114.17110960360931,SUCCESS_CSDI,"SUCCESS_CSDI: MANNINGS O/B THE DAIRY FARM COMPANY, LIMITED - G/F, OXFORD COMMERCIAL BUILDING, 494-496 NATHAN ROAD, YAU MA TEI, KLN"
175.0,Yau Tsim Mong,"Shop No.101, Hoi Fu Shopping Center, Hoi Wang Road, Mongkok West, Kln.",22.315290712492803,114.1645675510566,SUCCESS_CSDI,SUCCESS_CSDI: Hoi Fu Shopping Centre - Hoi Fu Court
255.0,Yau Tsim Mong,"Shop 3-4, G/F., Tai Fong Building, 51-65 Ivy Street, Tai Kok Tsui, Kln.",22.321259682412705,114.16157755166655,SUCCESS_CSDI,SUCCESS_CSDI: Tai Fong Building - 51-65 IVY STREET|97-105 TAI KOK TSUI ROAD
47.0,Yau Tsim Mong,"Shop 056-059, G/F, New Kowloon Plaza, 38 Tai Kok Tsui Road, Kln.",22.3196974739594,114.16249979040268,SUCCESS_CSDI,SUCCESS_CSDI: New Kowloon Plaza - 38 TAI KOK TSUI ROAD  
275.0,Yau Tsim Mong,"Shop 109-110, Level 1, Metro Harbour Plaza, 8 Fuk Lee Street, Tai Kok Tsui, Kln",22.324536032803547,114.16062861593686,SUCCESS_CSDI,"SUCCESS_CSDI: Metro Harbour Plaza - 1/F, 8 Fuk Lee Street, Tai Kok Tsui, Kowloon"
491.0,Yau Tsim Mong,"Shop A & B, G/F, Sang Fat Building, 218-220 Sai Yeung Choi Street South, 41 Bute Street, Kowloon",22.322370998582663,114.16953649371328,SUCCESS_CSDI,SUCCESS_CSDI: Sang Fat Building - 218-220 SAI YEUNG CHOI STREET SOUTH|41 BUTE STREET
80.0,Yau Tsim Mong,"Shop A & B1A, G/F., Man Kee Mansion, 86D Waterloo Road, Kln.",22.31984259672537,114.17677730071303,SUCCESS_CSDI,SUCCESS_CSDI: Man Kee Mansion Block A-D - MAN KEE MANSION
516.0,Yau Tsim Mong,"Shop No.162 , Level 1,Moko, 193 Prince Edward Road West, Mongkok, Kowloon",22.327782085560887,114.18990624559763,SUCCESS_CSDI,SUCCESS_CSDI: PRINCE EDWARD ROAD WEST - 
843.0,Yau Tsim Mong,"Shop G20-22, G/F, Grand Plaza, 625 & 639 Nathan Road, Kowloon",22.318115200990125,114.16936700125727,SUCCESS_CSDI,"SUCCESS_CSDI: Grand Plaza, 625 & 639 Nathan Road, Kowloon - Mannings Shop G20-22, G/F, Grand Plaza, 625 & 639 Nathan Road, Kowloon"
430.0,Yau Tsim Mong,"Shop 10-13, G/F, Sim City of Chung Kiu Co Bldg, Nos.47-51 Shan Tung Street, Mongkok, Kln",22.46885718568848,113.98400516920307,SUCCESS_CSDI,SUCCESS_CSDI: SHAN TUNG STREET - 
224.0,Yau Tsim Mong,"Shop B & C, G/F, Tai Wah House, 50-52 Lai Chi Kok Road, Kln.",22.323933149810014,114.1668865974582,SUCCESS_CSDI,SUCCESS_CSDI: Tai Wah House - 50-54 LAI CHI KOK ROAD|90-94 PRINCE EDWARD ROAD WEST
922.0,Yau Tsim Mong,"Shop B on G/F & Yard, Ruby Mansion, No. 38-42 Nullah Road, Prince Edward, Kowloon",22.324050701186756,114.16982759512688,SUCCESS_CSDI,SUCCESS_CSDI: PRINCE EDWARD ROAD/NULLAH ROAD GARDEN - 
337.0,Yau Tsim Mong,"Shop No. UG05,Upper G/F, Olympian City 1, 11 Hoi Fai Road, West Kowloon",22.320265914672085,114.1577728965288,SUCCESS_CSDI,SUCCESS_CSDI: Olympian City - 
250.0,Yau Tsim Mong,"Shop 142-143, 1/F., Olympian City 2, Tai Kok Tsui, Kln.",22.317357554781097,114.16263858534309,SUCCESS_CSDI,"SUCCESS_CSDI: MANNINGS O/B THE DAIRY FARM COMPANY, LIMITED - SHOP NOS 142-143, 1/F, OLYMPIAN CITY 2, OLYMPIAN CITY, TAI KOK TSUI, KLN"
828.0,Kowloon City,"Shop No 320-321, Level 3, Homantin Plaza, Ho Man Tin Estate, Ho Man Tin, Kln",22.31601985713801,114.18218048492923,SUCCESS_CSDI,"SUCCESS_CSDI: Homantin Plaza iPostal Station - Site No. LK04, 1/F, Homantin Plaza, Ho Man Tin Estate, Ho Man Tin"
444.0,Kowloon City,"Shop No. G17, Oi Man Plaza, Oi Man Estate, Homantin, Kln",22.312211730590857,114.1786892815395,SUCCESS_CSDI,SUCCESS_CSDI: Oi Man Plaza - OI MAN ESTATE
426.0,Kowloon City,"Shop No.G02, G/F, Grand Waterfront Plaza, 38 San Ma Tau Street, Ma Tau Kok, Kowloon",22.31922763927887,114.19369478385721,SUCCESS_CSDI,SUCCESS_CSDI: Grand Waterfront Plaza - 
335.0,Kowloon City,"Shop No. 31, G/F, Honour Building, 78-80W To Kwa Wan Road, Tokwawan, Kln.",22.31723220423507,114.1901907435208,SUCCESS_CSDI,SUCCESS_CSDI: Honour Building Block D - HONOUR BUILDING
229.0,Kowloon City,"Shop 54-60, 1/F, Hunghom Commercial Centre, 37-41 Ma Tau Wai Rd., Hung Hom, Kln.",22.310019608638722,114.18777011319324,SUCCESS_CSDI,"SUCCESS_CSDI: Circle K-Hunghom Commercial Centre - Shop 43 & 44, G/F., Hunghom Comm. Square, 37-39 Ma Tau Wai Rd., Hung Hom, Kln."
76.0,Kowloon City,"Shop E, 1/F, Planet Square, 1-15 Tak Man Street, Hung Hom, Kln.",22.30693748800405,114.18792847395112,SUCCESS_CSDI,"SUCCESS_CSDI: Planet Square - Kai Kwai Building, Hung Hom, KLN"
360.0,Kowloon City,"Shop 17 G1A, G/F No. 1-7 Wu Kwong Street, Hung Hom, Kln.",22.306156423694343,114.18606105746657,SUCCESS_CSDI,SUCCESS_CSDI: WU KWONG STREET - 
266.0,Wong Tai Sin,"G/F., Nos. 74-76 Tseuk Luk Street, San Po Kong, Kln.",22.335530195599464,114.19685348732148,SUCCESS_CSDI,"SUCCESS_CSDI: ON HONG DISPENSARY O/B FAMOUS ASIA CORPORATION LIMITED - FLAT C, G/F, TONG SING MANSION, NOS. 72-82 TSEUK LUK STREET,SAN PO KONG,KLN"
211.0,Kowloon City,"Shop 3 & 4, G/F, Metropolitan Rise, 28 Ma Tau Kok Road, Kln.",22.3223432477324,114.18938750982537,SUCCESS_CSDI,"SUCCESS_CSDI: MANNINGS O/B THE DAIRY FARM COMPANY, LIMITED - SHOP 3 & 4, G/F, METROPOLITAN RISE , 28 MA TAU KOK ROAD, MA TAU WAI, KLN"
875.0,Kowloon City,"Shop 1, G/F, Billionnaire Luxe, 39 Nga Tsin Wai Road, Kowloon City, Kln",22.328773401316205,114.18888144899442,SUCCESS_CSDI,SUCCESS_CSDI: Billionnaire Luxe - 28 HAU WONG ROAD  
512.0,Wong Tai Sin,"Shop 2 ,G/F, Nos.35-49 Hong Keung Street, Kowloon",22.334474852440746,114.19687661407804,SUCCESS_CSDI,"SUCCESS_CSDI: Circle K-Sung On Mansion - Shop 1A, Ground Floor & Yard, Nos. 35-49 Hong Keung Street, Kowloon"
74.0,Kowloon City,"Shop 243A, G/F, Mei King Mansion Tokwawan Road, Tokwawan, Kln.",22.31595885095204,114.19065649741107,SUCCESS_CSDI,SUCCESS_CSDI: MEI KING MANSION PHASE 1 - 
81.0,Sham Shui Po,"Shop 501B, Dragon Ctr, Level 5, 37K Yen Chow St, Sham Shui Po, Kln.",22.32202790761021,114.17135156169901,SUCCESS_CSDI,SUCCESS_CSDI: HK & KLN Chiu Chow Public Assn Sec School - 
180.0,Sham Shui Po,"G/F, 316-318 Lai Chi Kok Road, Sham Shui Po, Kln.",22.334353063227553,114.1534610738005,SUCCESS_CSDI,"SUCCESS_CSDI: Hoi Ping Chamber of Commerce Primary School - 700 Lai Chi Kok Rd, Cheung Sha Wan, Kln"
878.0,Sham Shui Po,"Shop G01 & G02, G/F, Lai Kok Shopping Centre, Lai Kok Estate, Sham Shui Po, Kln",22.33350466468778,114.15703337055817,SUCCESS_CSDI,SUCCESS_CSDI: Lai Kok Shopping Centre - LAI KOK ESTATE
521.0,Sham Shui Po,"Shop No. B6 & B7,G/F, Kam Wah Mansion, Nos. 226-242 Cheung Sha Wan Road, Kln",22.331419112948826,114.16179970365077,SUCCESS_CSDI,SUCCESS_CSDI: Kam Wah Mansion - 226-242 CHEUNG SHA WAN ROAD  
879.0,Sham Shui Po,"Shop L2-1 & L2-2, Level 2, V Walk, 28 Sham Mong Road, Sham Shui Po, Kln",22.32110088282026,114.15979910955305,SUCCESS_CSDI,SUCCESS_CSDI: SHAM MONG ROAD - 
870.0,Sham Shui Po,"Shop F110, 1/F, Fu Cheong Shopping Centre, Fu Cheong Estate, Sham Shui Po, Kln",22.328826471807634,114.1543355903074,SUCCESS_CSDI,SUCCESS_CSDI: FU CHEONG ESTATE - 19 SAI CHUEN ROAD  
463.0,Sham Shui Po,"Shop No 9, G/F, Mei Leong House, Shek Kip Mei Estate Phase 2, Kln.",22.33240388501057,114.16768196027397,SUCCESS_CSDI,SUCCESS_CSDI: Mei Leong House - Shek Kip Mei Estate Phase 2
253.0,Sham Shui Po,"Shop A, G/F, Ample Building, Nos. 1 - 13 Woh Chai Street, Shek Kip Mei, Kln.",22.331320334169572,114.1701087292822,SUCCESS_CSDI,SUCCESS_CSDI: AMPLE BUILDING - 1-13 WOH CHAI STREET  
79.0,Sham Shui Po,"G/F., Maintown Plaza, 223-237 Nam Cheong St., Kln.",22.334038398559766,114.16731298836768,SUCCESS_CSDI,"SUCCESS_CSDI: Maintown Plaza - Nam Cheong Commercial Building, Shek Kip Mei, KLN"
168.0,Sham Shui Po,"G/F, 10A Tai Po Road, Kln.",22.333423529030398,114.16333228583272,SUCCESS_CSDI,SUCCESS_CSDI: TAI PO ROAD - 
223.0,Sham Shui Po,"Shop 4, 5 & 11, G/F., Rondall Building, 168-178 Tai Po Road, Kln.",22.331121403888968,114.16548831174156,SUCCESS_CSDI,SUCCESS_CSDI: Rondall Building - 15-16 YIU TUNG STREET|168-178 TAI PO ROAD
886.0,Sham Shui Po,"Shop L2-97 & L2-98, Level 2, V Walk, 28 Sham Mong Road, Sham Shui Po, Kln",22.32110088282026,114.15979910955305,SUCCESS_CSDI,SUCCESS_CSDI: SHAM MONG ROAD - 
142.0,Sham Shui Po,"Flat G18A-B, G/F Apollo Shopping Ctr, 164-170 Castle Peak Rd, Shamshuipo, Kln.",22.326967307127777,114.18857068611946,SUCCESS_CSDI,SUCCESS_CSDI: Chi Lan Yuen Block A-B - 
237.0,Sham Shui Po,"Units 121-123, 1/F, Cheung Sha Wan Plaza, 833 Cheung Sha Wan Road, Kln.",22.337079498902117,114.14846141601369,SUCCESS_CSDI,SUCCESS_CSDI: CHEUNG SHA WAN PLAZA - 833 CHEUNG SHA WAN ROAD  
297.0,Sham Shui Po,"Shop Nos. 12 & 13, G/F., Hoi Lai Shopping Centre, Hoi Lai Estate, Sham Shui Po, Kln.",22.332600034108065,114.14680244541279,SUCCESS_CSDI,SUCCESS_CSDI: Hoi Lai Shopping Centre - HOI LAI ESTATE
279.0,Sham Shui Po,"Shop Nos. 130 & 132, 1/F., Liberte, 833 Lai Chi Kok Road, Kowloon",22.336809713657964,114.13999296685915,SUCCESS_CSDI,SUCCESS_CSDI: LAI CHI KOK ROAD - 
65.0,Sham Shui Po,"Shop G11, G/F, Sun Light Building, 273 Shunning Road, Kln.",22.312271899892202,113.93620333653773,SUCCESS_CSDI,SUCCESS_CSDI: CHEONG SHUN ROAD - 
94.0,Sham Shui Po,"Shop 99B, G/F, 69-119 Broadway, Mei Foo Sun Chuen, Kln.",22.33591031994808,114.14078527004182,SUCCESS_CSDI,"SUCCESS_CSDI: MANNINGS O/B THE DAIRY FARM CO. LTD. - SHOP 99B, G/F, MEI FOO SUN CHUEN, 69-119, BROADWAY, MEI FOO, KLN"
252.0,Sham Shui Po,"Shop N72, G/F, Mount Sterling Mall, Mei Foo Sun Chuen, Kln.",22.337745752729948,114.13867638650991,SUCCESS_CSDI,SUCCESS_CSDI: Mount Sterling Mall - 
222.0,Sham Shui Po,"Shop G01, G/F, PeakCastle, 476 Castle Peak Road, Cheung Sha Wan, Kln.",22.340105401651257,114.15252820470911,SUCCESS_CSDI,SUCCESS_CSDI: PeakCastle - 476 CASTLE PEAK ROAD  
882.0,Sham Shui Po,"Shop G12, G/F, So Uk Shopping Centre, So Uk Estate, 
Sham Shui Po",22.341189648448914,114.15675076881368,SUCCESS_CSDI,SUCCESS_CSDI: SO UK ESTATE - 380 PO ON ROAD  
502.0,Sham Shui Po,"Shop B, G/F, TST Tower, No.388 Un Chau Street, Sham Shui Po, Kowloon",22.33850741645752,114.1555571562131,SUCCESS_CSDI,SUCCESS_CSDI: TST Tower - 388 UN CHAU STREET  
350.0,Island,"Unit 7T100, Level 7, Landside Check - In Hall, Terminal 1 , Hong Kong International Airport, Lantau, H.K.",22.314019580387733,113.91274692962067,SUCCESS_CSDI,SUCCESS_CSDI: HONG KONG INTERNATIONAL AIRPORT - 
835.0,Island,"Unit 7E140, Departure Hall, L7, Terminal 1 (Restricted Area), Hong Kong International Airport",22.314019580387733,113.91274692962067,SUCCESS_CSDI,SUCCESS_CSDI: HONG KONG INTERNATIONAL AIRPORT - 
840.0,Island,"Unit 6Z514A, Departure Hall, L6, Terminal 1 (Restricted Area), Hong Kong International Airport",22.314019580387733,113.91274692962067,SUCCESS_CSDI,SUCCESS_CSDI: HONG KONG INTERNATIONAL AIRPORT - 
409.0,Island,"Unit 5E525A, Terminal 1, Hong Kong International Airport, Lantau, Hong Kong",22.314019580387733,113.91274692962067,SUCCESS_CSDI,SUCCESS_CSDI: HONG KONG INTERNATIONAL AIRPORT - 
518.0,Island,"Unit 7E105,  L7 Departures Hall, Terminal 1, Hong Kong International Airport, Lantau, Hong Kong",22.315966791226607,113.93428304353927,SUCCESS_CSDI,"SUCCESS_CSDI: MANNINGS O/B THE DAIRY FARM CO LTD - UNIT 7E105, L7 DEPARTURES HALL, TERMINAL 1, HONG KONG INTERNATIONAL AIRPORT, LANTAU ISLAND,NT"
95.0,Kwai Tsing,"Shop 8-11, G/F., Comm Ctr, Broadview Garden, 1 Tsing Luk St, Tsing Yi, N.T.",22.355656840395355,114.10385715256066,SUCCESS_CSDI,SUCCESS_CSDI: TSING LUK STREET - 
874.0,Island,"Unit 501, 5/F, Citygate Outlets, Tung Chung, N.T.",22.290404795800757,113.94219412983632,SUCCESS_CSDI,SUCCESS_CSDI: CITYGATE - 
452.0,Kwai Tsing,"Shop 301, Lv 3, Cheung Hong Shopping Centre No.2, Cheung Hong Estate, 12 Ching Hong Road, Tsing Yi, N.T.",22.34988650372464,114.09861756525578,SUCCESS_CSDI,SUCCESS_CSDI: Cheung Hong Estate Commercial Centre No.2 - CHEUNG HONG ESTATE
447.0,Kwai Tsing,"Shop Unit 216-217, Level 2, Maritime Square, 33 Tsing King Road, Tsing Yi, N.T.",22.358353977264635,114.10748946595074,SUCCESS_CSDI,"SUCCESS_CSDI: WATSON'S THE CHEMIST O/B AS WATSON RETAIL (HK) LIMITED - SHOP UNIT 311-312, LEVEL 3, MARITIME SQUARE, 33 TSING KING ROAD,TSING YI,NT"
867.0,Island,"Shop G02, G/F, JoysMark, Mun Tung Estate, 
7 Chung Mun Road, Tung Chung, Lantau Island, HK
",22.276923603239357,113.93174385406253,SUCCESS_CSDI,SUCCESS_CSDI: CHUNG MUN ROAD - 
338.0,Island,"Shops 3-4, G/F., Tung Chung Crescent, Tung Chung, Lantau, H.K.",22.28827811241968,113.93910218048373,SUCCESS_CSDI,SUCCESS_CSDI: Tung Chung Crescent Club House - TUNG CHUNG CRESCENT
837.0,Island,"Shop 115 & 116, 1/F, Yat Tung Shopping Centre, 8 Yat Tung Street, Tung Chung, N.T., H.K.",22.281589166699224,113.93482463302591,SUCCESS_CSDI,SUCCESS_CSDI: Yat Tung Shopping Centre - YAT TUNG (I) ESTATE
474.0,Kwun Tong,"Shops 2 & 3, G/F, Lower Ngau Tau Kok Estate Plaza, Kln",22.3214760009896,114.21562000126036,SUCCESS_CSDI,"SUCCESS_CSDI: Lower Ngau Tau Kok Estate Plaza - Lower Ngau Tau Kok Estate Plaza, 183 Ngau Tau Kok Road, Ngau Tau Kok, Kowloon"
9.0,Kwun Tong,"Shop 183-185, G/F Amoy Plaza, Phase 2, 77 Ngau Tau Kok Road, Kln",22.32479568724146,114.21588414918969,SUCCESS_CSDI,SUCCESS_CSDI: Amoy Plaza - 77 NGAU TAU KOK ROAD  
916.0,Kowloon City,"Shop Nos. B119-B120, B1 Floor, Airside, No. 2 Concorde Road, Kai Tak, Kowloon, Hong Kong",22.329151532162957,114.19961702878297,SUCCESS_CSDI,SUCCESS_CSDI: Oasis Kai Tak Tower 2 - Oasis Kai Tak
100.0,Wong Tai Sin,"Shop S101, 1/F, Chuk Yuen Shopping Ctr, Chuk Yuen (South) Estate, Kln.",22.312843287049027,114.23271018407297,SUCCESS_CSDI,SUCCESS_CSDI: TSUI PING (SOUTH) ESTATE - 
497.0,Kowloon City,"Shop A004,G/F, Ching Long Shopping Centre, Muk Chui Street, Kowloon City, Kowloon",22.33150798659838,114.20310215485377,SUCCESS_CSDI,SUCCESS_CSDI: Ching Long Shopping Centre - Kai Ching Estate
461.0,Wong Tai Sin,"Shop L203-204, LG2/F, Fu Yan House, Fu Shan Estate, Kowloon ",22.342853000990896,114.20828100126033,SUCCESS_CSDI,"SUCCESS_CSDI: Fu Yan House, Fu Shan Estate - Fu Yan House, Fu Shan Estate, Fung Shing St, Diamond Hill, Kowloon"
369.0,Kwun Tong,"Shop 281, G/F., Hung Cheuk Lau, 281 Ngau Tau Kok Road, Kwun Tong Garden Estate, Kowloon",22.316120403129904,114.2191276067843,SUCCESS_CSDI,"SUCCESS_CSDI: 7-Eleven-Ngau Tau Kok - Shop No. 285, Hung Cheuk Lau, Kwun Tong Garden Estate, No. 285 Ngau Tau Kok Road, Kwun Tong, Kowloon"
958.0,Kowloon City,"Shop No. M1-204, Level 2, Kai Tak Mall 1, Kai Tak Sports Park, Kowloon City, Kowloon, Hong Kong",22.32574749295694,114.19580185780448,SUCCESS_CSDI,SUCCESS_CSDI: Kai Tak Mall 2 - Kai Tak Sports Park
862.0,Wong Tai Sin,"Shop No. G56, G/F, Mikiki, 638 Prince Edward Road East, 
San Po Kong, Kln
",22.32868254666697,114.19215424497561,SUCCESS_CSDI,SUCCESS_CSDI: PRINCE EDWARD ROAD EAST - 
31.0,Kwun Tong,"G/F, 7 Tung Ming Street, Kwun Tong, Kln.",22.3149342099634,114.22302282886663,SUCCESS_CSDI,"SUCCESS_CSDI: MANNINGS O/B THE DAIRY FARM CO. LTD. - G/F, 7, TUNG MING STREET, KWUN TONG, KLN"
284.0,Kwun Tong,"Shop No. L1-28 & L1-29, Level 1, APM, Millennium City 5, Kwun Tong, Kln",22.312367082543535,114.22518824753706,SUCCESS_CSDI,SUCCESS_CSDI: apm Millennium City 5 - 418 KWUN TONG ROAD  
480.0,Kwun Tong,"Shop 2182, 2183 & 2186, 2/F, Richland Gardens (Commercial & Garage Blk), Kowloon Bay, Kln",22.37301055298878,113.96436864224698,SUCCESS_CSDI,SUCCESS_CSDI: RICHLAND GARDEN - 
146.0,Wong Tai Sin,"G/F, 18 Sheung Fung Street, Wong Tai Sin, Kln.",22.34602940099124,114.19771850125976,SUCCESS_CSDI,"SUCCESS_CSDI: Ho Lap Primary School (Sponsored by Sik Sik Yuen) - 88 Sheung Fung Street, Tsz Wan Shan, Kln"
40.0,Kwun Tong,"Shop Nos. F16A & F17-F17A, Telford Plaza I, Kowloon Bay, Kln",22.32202790761021,114.17135156169901,SUCCESS_CSDI,SUCCESS_CSDI: HK & KLN Chiu Chow Public Assn Sec School - 
278.0,Wong Tai Sin,"Shop 537-538, 5/F, Tsz Wan Shan Shopping Centre, 23 Yuk Wah Street, Tsz Wan Shan, Kln.",22.34865113852337,114.2003764501327,SUCCESS_CSDI,"SUCCESS_CSDI: FU HONG DISPENSARY GROUP LIMITED - SHOP 516, 5/F, TSZ WAN SHAN SHOPPING CENTRE, 23 YUK WAH STREET,TSZ WAN SHAN,KLN"
496.0,Wong Tai Sin,"Shop A111, Upper G/F, Choi Wan Shopping Ctr (Ph 2), Choi Wan (I) Est, Ngau Chi Wan, Kln.",22.333609790985744,114.21480913130426,SUCCESS_CSDI,SUCCESS_CSDI: CHOI WAN ESTATE - 
812.0,Kwun Tong,"No 228, 2/F, Kai Tin Shopping Centre, Lam Tin, Kwun Tong, Kln",22.308670365528577,114.23494072503571,SUCCESS_CSDI,SUCCESS_CSDI: Kai Tin Shopping Centre - 50 KAI TIN ROAD  
363.0,Kwun Tong,"Shop Nos. 34 & 36, G.F., Laguna Plaza, 88 Cha Kwo Ling Road, Kwun Tong, Kln",22.299315317074047,114.23037480835626,SUCCESS_CSDI,SUCCESS_CSDI: CHA KWO LING ROAD - 
817.0,Kwun Tong,"Shop 314, 3/F, Lok Wah Shopping Centre, Lok Wah South & North Estate, Ngau Tau Kok, Kln
",22.321950031695515,114.21991140689514,SUCCESS_CSDI,SUCCESS_CSDI: Lok Wah Shopping Centre - LOK WAH NORTH ESTATE
540.0,Kwun Tong,"Shop No. LG02, Lower G/F, On Tat Shopping Centre, 
On Tat Estate, Kwun Tong, Kowloon",22.320168953214058,114.23485179997311,SUCCESS_CSDI,"SUCCESS_CSDI: On Tat Shopping Centre iPostal Station - Next to Lift No. SL5 & SL6, LG/F, On Tat Shopping Centre (South Wing), On Tat Estate"
861.0,Kwun Tong,"Shop 105, UG/F, On Tai Shopping Centre, On Tai Estate, 
Kwun Tong, Kln
",22.32675973951513,114.2301760202441,SUCCESS_CSDI,"SUCCESS_CSDI: HK MERCY MEDICAL LIMITED - STALL NO. 1, MARKET ON LG/F, ON TAI SHOPPING CENTRE, ON TAI ESTATE, KWUN TONG, KLN"
234.0,Kwun Tong,"Shop 7, G/F., Po Tat Shopping Centre, Po Lam Road, Sau Mau Ping, Kln",22.317499156868887,114.23611393215279,SUCCESS_CSDI,"SUCCESS_CSDI: PO TAT DISPENSARY LIMITED - SHOP 16, G/F, PO TAT SHOPPING CENTER, 2 PO LAM ROAD,SAU MAU PING,KLN"
455.0,Kwun Tong,"Shops 117-120, G/F, Yuk Shek House, Ping Shek Estate, Kowloon",22.333566000990334,114.20964500126023,SUCCESS_CSDI,"SUCCESS_CSDI: Yuk Shek House, Ping Shek Estate - Yuk Shek House, Ping Shek Estate, 2 Clear Water Bay Road, Kwun Tong, KLN"
436.0,Kwun Tong,"Shop No.103, 1/F., Tak Tin Shopping Centre, 223 Pik Wan Road, Lam Tin, Kln",22.310187001794283,114.23810400860391,SUCCESS_CSDI,"SUCCESS_CSDI: PARKNSHOP Tak Tin Shopping Centre - Shop No. 107, Tak Tin Shopping Centre, Tak Tin Estate, Lam Tin, Kowloon"
236.0,Kwun Tong,"Shop 108, 1/F, Sau Mau Ping Shopping Centre, Sau Mau Ping, Kln",22.319044728793187,114.23223729700159,SUCCESS_CSDI,"SUCCESS_CSDI: MANNINGS O/B THE DAIRY FARM COMPANY, LIMITED - SHOP 108, SAU MAU PING SHOPPING CENTRE, SAU MAU PING ESTATE, SAU MAU PING, KLN"
880.0,Kwun Tong,"Shop 201B, 2/F, Shun Lee Commercial Centre, Shun Lee Estate, 15 Lee On Road, Kwun Tong, Kln",22.33134857369256,114.22536895661833,SUCCESS_CSDI,"SUCCESS_CSDI: Shun Lee Commercial Centre iPostal Station - Site No. LK02, F3 Floor, Shun Lee Commercial Centre, 15 Lee On Road, Kwun Tong"
904.0,Kwun Tong,"ShopsL3-1,Level 3,Sceneway Plaza, No. 8 Sceneway Road, Lam Tin, Kln",22.30695513362776,114.23329014741097,SUCCESS_CSDI,SUCCESS_CSDI: Sceneway Plaza - 8 SCENEWAY ROAD  
355.0,Kwun Tong,"Shop Nos. 9-10, G/F, Tin Kuen House, Shun Tin Estate, Kln",22.325687000989692,114.22569800126112,SUCCESS_CSDI,"SUCCESS_CSDI: Tin Kuen House, Shun Tin Estate - Tin Kuen House, Shun Tin Estate, 9 Shun On Road, Kwun Tong, Kowloon"
51.0,Kwun Tong,"Shop 4A, Tsui Ping Shopping Circuit, Tsui Ping (North) Estate, Kwun Tong, Kln",22.31536380060664,114.22979948118349,SUCCESS_CSDI,SUCCESS_CSDI: TSUI PING (NORTH) ESTATE - 
475.0,Sai Kung,"Shop Unit F68, 1/F, Pop Corn, 9 Tong Chun Street, Tseung Kwan O, N.T.",22.30371056749024,114.26148317762487,SUCCESS_CSDI,SUCCESS_CSDI: TONG CHUN STREET - 
468.0,Kwun Tong,"Shop No. 233 2/F, Domain, Yau Tong, Kln",22.312,114.226,SUCCESS_DISTRICT_CENTER,SUCCESS_DISTRICT_CENTER: Kwun Tong center approximation
339.0,Sai Kung,"Shop No.238A & 238B, Level 2, East Point City, 8 Chung Wa Road, Tseung Kwan O, N.T.",22.381,114.274,SUCCESS_DISTRICT_CENTER,SUCCESS_DISTRICT_CENTER: Sai Kung center approximation
471.0,Sai Kung,"Shop 109, 1/F, Sheung Tak Shopping Ctr, Sheung Tak Est, 2 Tong Ming St, T.K.O., N.T.",22.310846019761815,114.25770072428622,SUCCESS_CSDI,SUCCESS_CSDI: SHEUNG TAK ESTATE - 2 TONG MING STREET  
907.0,Sai Kung,"Shop Unit 342, 3/F, The LOHAS, Tseung Kwan O, N.T",22.29490710098749,114.26971380126336,SUCCESS_CSDI,"SUCCESS_CSDI: The LOHAS - 1 Lohas Park Road, Tseung Kwan O, New Territories"
285.0,Sai Kung,"Shop Unit 119-121, 1/F., The Lane, Hang Hau, Tseung Kwan O, N.T.",22.315538297595968,114.26468182146513,SUCCESS_CSDI,SUCCESS_CSDI: The Lane - Residence Oasis
503.0,Sai Kung,"Shop 310, Choi Ming Shopping Centre, Tseung Kwan O, N.T.",22.306006000645585,114.25169200423316,SUCCESS_CSDI,SUCCESS_CSDI: Circle K-Choi Ming Shopping Centre - Shop 244 Choi Ming Shopping Centre (Extension) Tseung Kwan O
208.0,Sai Kung,"Shop 205 & 208, Level 2, MCP Discovery, Tseung Kwan O, N.T.",22.322414623072927,114.25686295204028,SUCCESS_CSDI,SUCCESS_CSDI: MCP Discovery - 
929.0,Sai Kung,"Shop Nos. 1116 - 1118, Level One, MCP Central, Tseung Kwan O, N.T.",22.323481119661658,114.25818172330709,SUCCESS_CSDI,"SUCCESS_CSDI: MANNINGS O/B THE DAIRY FARM COMPANY, LIMITED - SHOPS NOS. 1116-1118 , LEVEL ONE, MCP CENTRAL, TSEUNG KWAN O, NT"
897.0,Sai Kung,"Shop 117, Level 1, Park Central, 9 Tong Tak Street, Tseung Kwan O, Sai Kung, N.T.",22.307202000988312,114.25745100126285,SUCCESS_CSDI,"SUCCESS_CSDI: Park Central Shopping Arcade - 9 Tong Tak Street, Park Central Shopping Arcade, Tseung Kwan O"
456.0,Sai Kung,"Shop Unit(s) F66-67, 1/F, PopCorn, 9 Tong Yin Street, Tseung Kwan O, New Territories",22.307805000988342,114.25959070126295,SUCCESS_CSDI,"SUCCESS_CSDI: PopCorn - 9, Tong Yin Street, Tsang Kwan O, New Territories."
478.0,Sai Kung,"Shop 116 & 117, G/F, Po Kan Hse, Po Lam Est, 18 Po Lam Rd North, Tseung Kwan O, N.T.",22.324871308418928,114.25611696484853,SUCCESS_CSDI,SUCCESS_CSDI: Po Kan House - PO LAM ESTATE
149.0,Sai Kung,"Shop Nos. 26-27, G/F, Sai Kung Town Centre, 22-40 Fuk Man Road, Sai Kung, N.T.",22.382983425227977,114.27190006610006,SUCCESS_CSDI,SUCCESS_CSDI: Sai Kung Town Centre Block A - SAI KUNG TOWN CENTRE
321.0,Sai Kung,"Shop 101, 5/F., Tsui Lam Square, Tsui Lam Estate, Tseung Kwan O, N.T.",22.322954006587306,114.24902400122357,SUCCESS_CSDI,"SUCCESS_CSDI: PARKNSHOP Tsui Lam Estate - Shop No 132, 5/F, Tsui Lam Square, Tsui Lam Est, 11 Tsui Lam Road, Tseung Kwan O, N.T."
425.0,Kwun Tong,"Shop 9, G/F, Yau Lai Shopping Centre, Yau Tong, Kln",22.298618560375903,114.23696481354483,SUCCESS_CSDI,"SUCCESS_CSDI: PREMIER MEDICAL PRACTICE - SHOP 304, YAU LAI SHOPPING CENTRE, 9 YAU TONG ROAD, YAU TONG, KLN"
472.0,Kwun Tong,"Shop 140, 1/F, Lei Yue Mun Plaza, Yau Tong, Kln",22.29700470467277,114.23921753128324,SUCCESS_CSDI,"SUCCESS_CSDI: HUMAN HEALTH (YAU TONG) - SHOP 209A, LEI YUE MUN PLAZA, YAU TONG, KLN"
928.0,Island,"Minor Portion of Shops G11 & G13, G/F Discovery Bay North Plaza, Lantau Island, HK.",22.308538386342196,114.01656372035612,SUCCESS_CSDI,"SUCCESS_CSDI: Discovery Bay North Plaza - Discovery Bay, Lantau Island, NT"
,,,22.284,114.158,SUCCESS_DISTRICT_CENTER,SUCCESS_DISTRICT_CENTER: Default Central location (district 'nan' not found)
